"CODI_EQUIPAMENT","EQUIPAMENT","SECCIO","TIPUS_VIA","NOM_CARRER","NUM_CARRER_1","NUM_CARRER_2","CODI_BARRI","NUM_BARRI","CODI_DISTRICTE","NOM_DISTRICTE","CODI_POSTAL","CODI_POBLACIO","POBLACIO","LATITUD","LONGITUD","X_ETRS89","Y_ETRS89","X_ED50","Y_ED50","TELEFON_NUM","TELEFON_TIPUS","TELEFON_INFO_COM","HORARI_PERIODE_INICI","HORARI_PERIODE_FI","HORARI_DIES","HORARI_HORES_INICI","HORARI_HORES_FI","HORARI_OBSERVACIONS","3ER_NIVELL","2N_NIVELL","1ER_NIVELL","Unnamed: 32"
99400071223,"Contenidor de Sal *Torrent Roses - Ardena","#","C","Torrent de les Roses",1,1,21,"Pedralbes",4,"Les Corts",8034,19,"BARCELONA",41.388938,2.1055349999999997,425217.711,4582320.257,425309.595,4582521.193,"","","","","","","","","","Contenidors de sal","Medi ambient","Medi ambient",""
99400076522,"Contenidor de Sal *Avinguda Pearson - Panamá","#","C","Panamà",27,27,21,"Pedralbes",4,"Les Corts",8034,19,"BARCELONA",41.394737,2.105274,425202.479,4582964.368,425294.36299999995,4583165.308999999,"","","","","","","","","","Contenidors de sal","Medi ambient","Medi ambient",""
99400076539,"Contenidor de Sal *Enginyeria - August Font","#","C","August Font",45,45,25,"Sant Gervasi - la Bonanova",5,"Sarrià-Sant Gervasi",8035,19,"BARCELONA",41.418308,2.131654,427434.06200000003,4585558.709,427525.966,4585759.675,"","","","","","","","","","Contenidors de sal","Medi ambient","Medi ambient",""
99400076566,"Contenidor de Sal *Parc Central de Nou Barris","#","C","Vilalba dels Arcs",100,100,48,"la Guineueta",8,"Nou Barris",8042,19,"BARCELONA",41.437868,2.165954,430321.424,4587702.1110000005,430413.354,4587903.098,"","","","","","","","","","Contenidors de sal","Medi ambient","Medi ambient",""
99400076573,"Contenidor de Sal *Ctra Aigües - Av Vallvidriera (Pont Vianants)","#","Camí","Carlet",2,2,23,"Sarrià",5,"Sarrià-Sant Gervasi",8017,19,"BARCELONA",41.406704,2.1054169999999996,425228.196,4584292.791,425320.08,4584493.745,"","","","","","","","","","Contenidors de sal","Medi ambient","Medi ambient",""
99400076574,"Contenidor de Sal * Font Mont - Ptge Font del Mont (Escala)","#","C","Font del Mont",19,19,22,"Vallvidrera, el Tibidabo i les Planes",5,"Sarrià-Sant Gervasi",8017,19,"BARCELONA",41.413548999999996,2.111941,425781.244,4585047.034,425873.133,4585247.995,"","","","","","","","","","Contenidors de sal","Medi ambient","Medi ambient",""
99400076575,"Contenidor de Sal *Font del Mont - Escales Passatge Font del Mont","#","C","Font del Mont",50,50,22,"Vallvidrera, el Tibidabo i les Planes",5,"Sarrià-Sant Gervasi",8017,19,"BARCELONA",41.414288,2.112678,425843.717,4585128.518,425935.606,4585329.48,"","","","","","","","","","Contenidors de sal","Medi ambient","Medi ambient",""
99400076576,"Contenidor de Sal *Colònia Tibidabo - Camí Vallvidrera al Tibidabo","#","C","Colònia del Tibidabo",1,1,22,"Vallvidrera, el Tibidabo i les Planes",5,"Sarrià-Sant Gervasi",8035,19,"BARCELONA",41.420922999999995,2.119079,426386.14700000006,4585859.619,426478.041,4586060.588,"","","","","","","","","","Contenidors de sal","Medi ambient","Medi ambient",""
99400076578,"Contenidor de Sal *Camí de Cal Totxo - Camí de Sant Cugat","#","Camí","Sant Cugat",27,27,22,"Vallvidrera, el Tibidabo i les Planes",5,"Sarrià-Sant Gervasi",8035,19,"BARCELONA",41.42212,2.116271,426152.881,4585994.923,426244.773,4586195.893,"","","","","","","","","","Contenidors de sal","Medi ambient","Medi ambient",""
99400076748,"Contenidor de Sal *Espinagosa - Fonolleda","#","C","Fonolleda",8,8,22,"Vallvidrera, el Tibidabo i les Planes",5,"Sarrià-Sant Gervasi",8017,19,"BARCELONA",41.41237,2.101105,424874.32700000005,4584925.522,424966.20700000005,4585126.482,"","","","","","","","","","Contenidors de sal","Medi ambient","Medi ambient",""
99400076750,"Contenidor de Sal *Passatge del Negociant - Casetes","#","Ptge","Negociant",2,2,22,"Vallvidrera, el Tibidabo i les Planes",5,"Sarrià-Sant Gervasi",8017,19,"BARCELONA",41.412382,2.103213,425050.518,4584925.077,425142.4,4585126.037,"","","","","","","","","","Contenidors de sal","Medi ambient","Medi ambient",""
99400076851,"Contenidor de Sal *Ginestera - Camí del Molí","#","C","Ginestera",21,21,22,"Vallvidrera, el Tibidabo i les Planes",5,"Sarrià-Sant Gervasi",8017,19,"BARCELONA",41.411516999999996,2.100503,424822.995,4584831.353,424914.875,4585032.312,"","","","","","","","","","Contenidors de sal","Medi ambient","Medi ambient",""
99400076877,"Contenidor de Sal *Camí Mas Sauró - Passatge Mas Sauró","#","Camí","Mas Sauró",33,33,22,"Vallvidrera, el Tibidabo i les Planes",5,"Sarrià-Sant Gervasi",8017,19,"BARCELONA",41.415527000000004,2.095068,424373.41799999995,4585281.304,424465.294,4585482.267,"","","","","","","","","","Contenidors de sal","Medi ambient","Medi ambient",""
99400076878,"Contenidor de Sal *Mas Sauró - Camí de Pebràs - Rotonda Gir Bus","#","Camí","Mas Sauró",1,1,22,"Vallvidrera, el Tibidabo i les Planes",5,"Sarrià-Sant Gervasi",8017,19,"BARCELONA",41.415581,2.092557,424163.65,4585289.461,424255.524,4585490.424,"","","","","","","","","","Contenidors de sal","Medi ambient","Medi ambient",""
99400076881,"Contenidor de Sal *Camí Mas Sauró (Escales Ciureny)","#","Camí","Mas Sauró",53,53,22,"Vallvidrera, el Tibidabo i les Planes",5,"Sarrià-Sant Gervasi",8017,19,"BARCELONA",41.417553999999996,2.096323,424480.646,4585505.235,424572.523,4585706.2,"","","","","","","","","","Contenidors de sal","Medi ambient","Medi ambient",""
99400076882,"Contenidor de Sal *Torrent del Rovelló - Camí del Pantà","#","T","Rovelló",1,1,22,"Vallvidrera, el Tibidabo i les Planes",5,"Sarrià-Sant Gervasi",8017,19,"BARCELONA",41.419183000000004,2.0967540000000002,424518.518,4585685.634,424610.395,4585886.6,"","","","","","","","","","Contenidors de sal","Medi ambient","Medi ambient",""
99400076884,"Contenidor de Sal *Torrent Rovelló - Camí de la Font dels Pins","#","T","Rovelló",17,17,22,"Vallvidrera, el Tibidabo i les Planes",5,"Sarrià-Sant Gervasi",8017,19,"BARCELONA",41.418439,2.094831,424357.01200000005,4585604.808999999,424448.88700000005,4585805.775,"","","","","","","","","","Contenidors de sal","Medi ambient","Medi ambient",""
99400076889,"Contenidor de Sal *Major Rectoret - Escola Vil·la Joana","#","C","Major del Rectoret",15,15,22,"Vallvidrera, el Tibidabo i les Planes",5,"Sarrià-Sant Gervasi",8017,19,"BARCELONA",41.421686,2.095713,424434.441,4585964.451,424526.31700000004,4586165.42,"","","","","","","","","","Contenidors de sal","Medi ambient","Medi ambient",""
99400076890,"Contenidor de Sal *Avinguda del Rectoret - Tren","#","Av","Rectoret",26,26,22,"Vallvidrera, el Tibidabo i les Planes",5,"Sarrià-Sant Gervasi",8017,19,"BARCELONA",41.428323999999996,2.092032,424134.61,4586704.608,424226.48299999995,4586905.584,"","","","","","","","","","Contenidors de sal","Medi ambient","Medi ambient",""
99400076893,"Contenidor de Sal *Amarant - Bohemis","#","C","Bohemis",51,51,22,"Vallvidrera, el Tibidabo i les Planes",5,"Sarrià-Sant Gervasi",8017,19,"BARCELONA",41.425525,2.097474,424586.075,4586389.109,424677.95200000005,4586590.0819999995,"","","","","","","","","","Contenidors de sal","Medi ambient","Medi ambient",""
99400076894,"Contenidor de Sal *Savina - Gardènia - Codonyer","#","C","Savina",21,21,22,"Vallvidrera, el Tibidabo i les Planes",5,"Sarrià-Sant Gervasi",8017,19,"BARCELONA",41.425575,2.098621,424681.95399999997,4586393.652,424773.83200000005,4586594.625,"","","","","","","","","","Contenidors de sal","Medi ambient","Medi ambient",""
99400076950,"Contenidor de Sal *Menta - Robínia","#","C","Robínia",18,18,22,"Vallvidrera, el Tibidabo i les Planes",5,"Sarrià-Sant Gervasi",8017,19,"BARCELONA",41.42622,2.101627,424933.89700000006,4586462.635,425025.778,4586663.609,"","","","","","","","","","Contenidors de sal","Medi ambient","Medi ambient",""
99400076955,"Contenidor de Sal *Plaça Televisió","#","C","Robínia",30,30,22,"Vallvidrera, el Tibidabo i les Planes",5,"Sarrià-Sant Gervasi",8017,19,"BARCELONA",41.427071999999995,2.102391,424998.703,4586556.643999999,425090.584,4586757.619,"","","","","","","","","","Contenidors de sal","Medi ambient","Medi ambient",""
99400076956,"Contenidor de Sal *Menta - Lilà","#","C","Menta",46,46,22,"Vallvidrera, el Tibidabo i les Planes",5,"Sarrià-Sant Gervasi",8017,19,"BARCELONA",41.429511,2.100884,424875.559,4586828.703,424967.439,4587029.68,"","","","","","","","","","Contenidors de sal","Medi ambient","Medi ambient",""
99400076957,"Contenidor de Sal *Via Làctia - Robínia","#","C","Robínia",47,47,22,"Vallvidrera, el Tibidabo i les Planes",5,"Sarrià-Sant Gervasi",8017,19,"BARCELONA",41.428897,2.101916,424961.14,4586759.578,425053.021,4586960.555,"","","","","","","","","","Contenidors de sal","Medi ambient","Medi ambient",""
99400076960,"Contenidor de Sal *Plaça Tulipa","#","Pl","Tulipa",1,1,22,"Vallvidrera, el Tibidabo i les Planes",5,"Sarrià-Sant Gervasi",8017,19,"BARCELONA",41.427819,2.096638,424518.823,4586644.558999999,424610.7,4586845.534,"","","","","","","","","","Contenidors de sal","Medi ambient","Medi ambient",""
99400076962,"Contenidor de Sal *Major de Rectoret - Costa Bruc","#","C","Major del Rectoret",168,168,22,"Vallvidrera, el Tibidabo i les Planes",5,"Sarrià-Sant Gervasi",8017,19,"BARCELONA",41.431043,2.095728,424446.51399999997,4587003.274,424538.39,4587204.2530000005,"","","","","","","","","","Contenidors de sal","Medi ambient","Medi ambient",""
99400076963,"Contenidor de Sal *Baladre - Malva - Costa del Bruc","#","Pl","Teix",0,0,22,"Vallvidrera, el Tibidabo i les Planes",5,"Sarrià-Sant Gervasi",8017,19,"BARCELONA",41.429153,2.0939799999999997,424298.334,4586794.919,424390.209,4586995.896000001,"","","","","","","","","","Contenidors de sal","Medi ambient","Medi ambient",""
99400076964,"Contenidor de Sal *Ctra Aigües - Camí de la Gírgola","#","Camí","Gírgola",1,1,23,"Sarrià",5,"Sarrià-Sant Gervasi",8017,19,"BARCELONA",41.407327,2.104984,425192.685,4584362.287,425284.56899999996,4584563.241,"","","","","","","","","","Contenidors de sal","Medi ambient","Medi ambient",""
99400076965,"Contenidor de Sal *Camí Mas Guimbau - Can Castellví","#","C","Can Castellví",34,34,22,"Vallvidrera, el Tibidabo i les Planes",5,"Sarrià-Sant Gervasi",8017,19,"BARCELONA",41.424428999999996,2.0841529999999997,423471.672,4586279.115,423563.539,4586480.087,"","","","","","","","","","Contenidors de sal","Medi ambient","Medi ambient",""
99400076966,"Contenidor de Sal *Camí dels Verns - Camí Pla Llorenç - Girada Gespa","#","Camí","Verns",17,17,22,"Vallvidrera, el Tibidabo i les Planes",5,"Sarrià-Sant Gervasi",8017,19,"BARCELONA",41.426511,2.088124,423805.888,4586506.797,423897.758,4586707.771000001,"","","","","","","","","","Contenidors de sal","Medi ambient","Medi ambient",""
99400076967,"Contenidor de Sal *Camí de Mas Guimbau - Gespa","#","C","Gespa",39,39,22,"Vallvidrera, el Tibidabo i les Planes",5,"Sarrià-Sant Gervasi",8017,19,"BARCELONA",41.424439,2.090575,424008.345,4586274.59,424100.217,4586475.562,"","","","","","","","","","Contenidors de sal","Medi ambient","Medi ambient",""
99400076968,"Contenidor de Sal *Passeig Vimetera - Passeig Pi Forcat","#","Pg","Vimetera",48,48,22,"Vallvidrera, el Tibidabo i les Planes",5,"Sarrià-Sant Gervasi",8017,19,"BARCELONA",41.423062,2.0879779999999997,423789.709,4586124.008,423881.57899999997,4586324.978,"","","","","","","","","","Contenidors de sal","Medi ambient","Medi ambient",""
99400076969,"Contenidor de Sal *Passeig Grèvol - Camí Can Castellví","#","Pg","Grèvol",1,1,22,"Vallvidrera, el Tibidabo i les Planes",5,"Sarrià-Sant Gervasi",8017,19,"BARCELONA",41.421214,2.0855639999999998,423585.78,4585920.933,423677.648,4586121.901000001,"","","","","","","","","","Contenidors de sal","Medi ambient","Medi ambient",""
99400076970,"Contenidor de Sal *Passeig Grèvol","#","Pg","Grèvol",14,14,22,"Vallvidrera, el Tibidabo i les Planes",5,"Sarrià-Sant Gervasi",8017,19,"BARCELONA",41.421718,2.086809,423690.44200000004,4585975.83,423782.311,4586176.799,"","","","","","","","","","Contenidors de sal","Medi ambient","Medi ambient",""
99400076971,"Contenidor de Sal *Passeig Grèvol - Passeig Pi Forcat","#","Pg","Grèvol",24,24,22,"Vallvidrera, el Tibidabo i les Planes",5,"Sarrià-Sant Gervasi",8017,19,"BARCELONA",41.422012,2.087699,423765.159,4586007.676,423857.029,4586208.645,"","","","","","","","","","Contenidors de sal","Medi ambient","Medi ambient",""
99400076972,"Contenidor de Sal *Passeig Vimetera - Gespa","#","Pg","Vimetera",37,37,22,"Vallvidrera, el Tibidabo i les Planes",5,"Sarrià-Sant Gervasi",8017,19,"BARCELONA",41.423133,2.0886880000000003,423849.071,4586131.29,423940.94200000004,4586332.26,"","","","","","","","","","Contenidors de sal","Medi ambient","Medi ambient",""
99400076973,"Contenidor de Sal *Passeig Vimetera - Gespa","#","Pg","Vimetera",16,16,22,"Vallvidrera, el Tibidabo i les Planes",5,"Sarrià-Sant Gervasi",8017,19,"BARCELONA",41.423774,2.090045,423963.282,4586201.252,424055.154,4586402.223,"","","","","","","","","","Contenidors de sal","Medi ambient","Medi ambient",""
99400076976,"Contenidor de Sal *Solé i Pla - Pi","#","Pg","Solé i Pla",21,21,22,"Vallvidrera, el Tibidabo i les Planes",5,"Sarrià-Sant Gervasi",8017,19,"BARCELONA",41.427282,2.0886169999999997,423848.023,4586591.911,423939.894,4586792.886,"","","","","","","","","","Contenidors de sal","Medi ambient","Medi ambient",""
99400076977,"Contenidor de Sal *Camí Bellavista - Escales Bellavista","#","Camí","Bellavista",2,2,22,"Vallvidrera, el Tibidabo i les Planes",5,"Sarrià-Sant Gervasi",8017,19,"BARCELONA",41.427574,2.085538,423591.06799999997,4586627.046,423682.936,4586828.021000001,"","","","","","","","","","Contenidors de sal","Medi ambient","Medi ambient",""
99400076978,"Contenidor de Sal *Camí Can Balasch - Camí Turó de l'Alzina","#","Camí","Turó de l'Alzina",2,2,22,"Vallvidrera, el Tibidabo i les Planes",5,"Sarrià-Sant Gervasi",8017,19,"BARCELONA",41.422306,2.081068,423211.407,4586046.136,423303.27200000006,4586247.105,"","","","","","","","","","Contenidors de sal","Medi ambient","Medi ambient",""
99400076979,"Contenidor de Sal *Escola Oficial d'Idiomes","#","Av","Jordà",14,14,39,"Sant Genís dels Agudells",7,"Horta-Guinardó",8035,19,"BARCELONA",41.426803,2.138593,428023.37299999996,4586495.977,428115.282,4586696.952,"","","","","","","","","","Contenidors de sal","Medi ambient","Medi ambient",""
99400076980,"Contenidor de Sal *Associació Veïns Font Castellana","#","C","Francesc Alegre",31,31,34,"Can Baró",7,"Horta-Guinardó",8024,19,"BARCELONA",41.417009,2.165614,430270.685,4585386.596,430362.615,4585587.561000001,"","","","","","","","","","Contenidors de sal","Medi ambient","Medi ambient",""
99400076981,"Contenidor de Sal *Hospital de la Santa Creu i Sant Pau - Sant Quintí - Mas Casanova","#","C","Sant Quintí",95,95,35,"el Guinardó",7,"Horta-Guinardó",8041,19,"BARCELONA",41.415088,2.175816,431121.224,4585165.185,431213.162,4585366.149,"","","","","","","","","","Contenidors de sal","Medi ambient","Medi ambient",""
99400076987,"Contenidor de Sal *Hospital Sant Rafael","#","Pg","Vall d'Hebron",107,107,40,"Montbau",7,"Horta-Guinardó",8035,19,"BARCELONA",41.42627,2.140431,428176.37299999996,4586435.304,428268.283,4586636.278,"","","","","","","","","","Contenidors de sal","Medi ambient","Medi ambient",""
99400076989,"Contenidor de Sal *Carretera Arrabassada - Accés Zoonosi","#","Ctra","Sant Cugat",250,250,40,"Montbau",7,"Horta-Guinardó",8035,19,"BARCELONA",41.432898,2.1335580000000003,427609.367,4587176.841,427701.27200000006,4587377.822,"","","","","","","","","","Contenidors de sal","Medi ambient","Medi ambient",""
99400076990,"Contenidor de Sal *Institut Escola Roquetes","#","C","Alcántara",22,22,50,"les Roquetes",8,"Nou Barris",8042,19,"BARCELONA",41.446474,2.172844,430906.162,4588651.922,430998.097,4588852.9180000005,"","","","","","","","","","Contenidors de sal","Medi ambient","Medi ambient",""
99400076991,"Contenidor de Sal *Seu Districte Nou Barris","#","Pl","Major de Nou Barris",1,1,48,"la Guineueta",8,"Nou Barris",8042,19,"BARCELONA",41.436844,2.1712380000000002,430761.73299999995,4587584.152,430853.667,4587785.138,"","","","","","","","","","Contenidors de sal","Medi ambient","Medi ambient",""
99400076992,"Contenidor de Sal *Mercat Ciutat Meridiana","#","C","Costabona",4,4,55,"Ciutat Meridiana",8,"Nou Barris",8033,19,"BARCELONA",41.461717,2.17782,431337.85299999994,4590340.273,431429.791,4590541.284,"","","","","","","","","","Contenidors de sal","Medi ambient","Medi ambient",""
99400076993,"Contenidor de Sal *Aiguablava","#","C","Aiguablava",121,121,53,"la Trinitat Nova",8,"Nou Barris",8033,19,"BARCELONA",41.453604,2.186114,432022.04299999995,4589433.088,432113.98799999995,4589634.091,"","","","","","","","","","Contenidors de sal","Medi ambient","Medi ambient",""
99400076996,"Contenidor de Sal *Institut Pablo Ruiz Picasso","#","Av","Escolapi Càncer",2,2,54,"Torre Baró",8,"Nou Barris",8033,19,"BARCELONA",41.460414,2.181436,431638.481,4590192.76,431730.422,4590393.77,"","","","","","","","","","Contenidors de sal","Medi ambient","Medi ambient",""
99400077016,"Contenidor de Sal *Hospital Esperança","#","Av","Santuari St Josep Muntanya",12,12,30,"la Salut",6,"Gràcia",8024,19,"BARCELONA",41.410567,2.15482,429361.62899999996,4584680.163,429453.55100000004,4584881.1219999995,"","","","","","","","","","Contenidors de sal","Medi ambient","Medi ambient",""
99400077017,"Contenidor de Sal *Gabriel Ferrater - Budellera","#","C","Gabriel Ferrater",27,27,22,"Vallvidrera, el Tibidabo i les Planes",5,"Sarrià-Sant Gervasi",8017,19,"BARCELONA",41.418124,2.111278,425731.104,4585555.569,425822.992,4585756.535,"","","","","","","","","","Contenidors de sal","Medi ambient","Medi ambient",""
99400077024,"Contenidor de Sal *Escola Font d'en Fargas","#","Pg","Font d'en Fargas",86,86,36,"la Font d'en Fargues",7,"Horta-Guinardó",8032,19,"BARCELONA",41.422277,2.1650009999999997,430225.099,4585971.949,430317.028,4586172.92,"","","","","","","","","","Contenidors de sal","Medi ambient","Medi ambient",""
99400077026,"Contenidor de Sal *Escola Ciutat Comtal","#","C","Pujalt",4,4,56,"Vallbona",8,"Nou Barris",8033,19,"BARCELONA",41.462696,2.182575,431736.0,4590445.251,431827.94200000004,4590646.2639999995,"","","","","","","","","","Contenidors de sal","Medi ambient","Medi ambient",""
99400077029,"Contenidor de Sal *Camí Mas Guimbau - Pollancre","#","C","Pollancre",1,1,22,"Vallvidrera, el Tibidabo i les Planes",5,"Sarrià-Sant Gervasi",8017,19,"BARCELONA",41.42661,2.089812,423947.093,4586516.277,424038.964,4586717.251,"","","","","","","","","","Contenidors de sal","Medi ambient","Medi ambient",""
99400077031,"Contenidor de Sal *Mas Sauró - Camí de la Reineta (Transformador)","#","Camí","Reineta",20,20,22,"Vallvidrera, el Tibidabo i les Planes",5,"Sarrià-Sant Gervasi",8017,19,"BARCELONA",41.417127,2.097055,424541.323,4585457.137,424633.2,4585658.101,"","","","","","","","","","Contenidors de sal","Medi ambient","Medi ambient",""
99400077032,"Contenidor de Sal *Camí de la Reina - Escales Ciureny","#","Camí","Reineta",12,12,22,"Vallvidrera, el Tibidabo i les Planes",5,"Sarrià-Sant Gervasi",8017,19,"BARCELONA",41.417983,2.096321,424480.976,4585552.846,424572.85299999994,4585753.811000001,"","","","","","","","","","Contenidors de sal","Medi ambient","Medi ambient",""
99400077034,"Contenidor de Sal *Escola Pirineu","#","C","Josep Serrano",64,64,34,"Can Baró",7,"Horta-Guinardó",8024,19,"BARCELONA",41.417164,2.162584,430017.619,4585406.244,430109.547,4585607.209,"","","","","","","","","","Contenidors de sal","Medi ambient","Medi ambient",""
99400286094,"Contenidor de Sal *Plaça Cim del Tibidabo","#","Pl","Tibidabo",1,1,22,"Vallvidrera, el Tibidabo i les Planes",5,"Sarrià-Sant Gervasi",8035,19,"BARCELONA",41.421609000000004,2.1187419999999997,426358.78,4585936.051,426450.674,4586137.02,"","","","","","","","","","Contenidors de sal","Medi ambient","Medi ambient",""
99400286095,"Contenidor de Sal *Carrer Queralt - Actriu Tubau (Escales Queralt)","#","C","Queralt",16,16,22,"Vallvidrera, el Tibidabo i les Planes",5,"Sarrià-Sant Gervasi",8017,19,"BARCELONA",41.413973999999996,2.105404,425235.468,4585099.881,425327.352,4585300.842,"","","","","","","","","","Contenidors de sal","Medi ambient","Medi ambient",""
99400286096,"Contenidor de Sal *Navarro i Reverter - Manelic","#","C","Navarro i Reverter",21,21,22,"Vallvidrera, el Tibidabo i les Planes",5,"Sarrià-Sant Gervasi",8017,19,"BARCELONA",41.41603,2.1060659999999998,425293.124,4585327.513,425385.008,4585528.476,"","","","","","","","","","Contenidors de sal","Medi ambient","Medi ambient",""
99400286099,"Contenidor de Sal *Pelfort (Escales) - Múrgola","#","Camí","Múrgola",2,2,22,"Vallvidrera, el Tibidabo i les Planes",5,"Sarrià-Sant Gervasi",8017,19,"BARCELONA",41.412812,2.0987400000000003,424677.16,4584976.698,424769.039,4585177.658,"","","","","","","","","","Contenidors de sal","Medi ambient","Medi ambient",""
99400286100,"Contenidor de Sal *Mont d'Orsà - Turó","#","C","Turó",4,4,22,"Vallvidrera, el Tibidabo i les Planes",5,"Sarrià-Sant Gervasi",8017,19,"BARCELONA",41.412262,2.103574,425080.55100000004,4584911.377,425172.43299999996,4585112.336,"","","","","","","","","","Contenidors de sal","Medi ambient","Medi ambient",""
99400286101,"Contenidor de Sal *Major de Rectoret - Marco Polo","#","C","Major del Rectoret",144,144,22,"Vallvidrera, el Tibidabo i les Planes",5,"Sarrià-Sant Gervasi",8017,19,"BARCELONA",41.429714000000004,2.0950189999999997,424385.765,4586856.355,424477.64,4587057.3319999995,"","","","","","","","","","Contenidors de sal","Medi ambient","Medi ambient",""
99400286102,"Contenidor de Sal *Vesc - Margalló","#","C","Margalló",2,2,22,"Vallvidrera, el Tibidabo i les Planes",5,"Sarrià-Sant Gervasi",8017,19,"BARCELONA",41.425191999999996,2.09375,424274.487,4586355.379,424366.36100000003,4586556.352,"","","","","","","","","","Contenidors de sal","Medi ambient","Medi ambient",""
99400286104,"Contenidor de Sal *Violer - Madame Buterfly","#","C","Violer",8,8,22,"Vallvidrera, el Tibidabo i les Planes",5,"Sarrià-Sant Gervasi",8017,19,"BARCELONA",41.428083,2.0994639999999998,424755.261,4586671.442,424847.14,4586872.4180000005,"","","","","","","","","","Contenidors de sal","Medi ambient","Medi ambient",""
99400286105,"Contenidor de Sal *Palafolls - Bosc","#","C","Palafolls",1,1,23,"Sarrià",5,"Sarrià-Sant Gervasi",8017,19,"BARCELONA",41.411004,2.112161,425796.721,4584764.328,425888.61,4584965.286,"","","","","","","","","","Contenidors de sal","Medi ambient","Medi ambient",""
99400286106,"Contenidor de Sal *Palafolls","#","C","Palafolls",28,28,23,"Sarrià",5,"Sarrià-Sant Gervasi",8017,19,"BARCELONA",41.409471999999994,2.1139189999999997,425941.92,4584592.7360000005,426033.81,4584793.693,"","","","","","","","","","Contenidors de sal","Medi ambient","Medi ambient",""
99400286143,"Contenidor de Sal *Camí Boscà","#","Camí","Boscà",8,8,22,"Vallvidrera, el Tibidabo i les Planes",5,"Sarrià-Sant Gervasi",8017,19,"BARCELONA",41.413502,2.1098310000000002,425604.83700000006,4585043.655,425696.724,4585244.616,"","","","","","","","","","Contenidors de sal","Medi ambient","Medi ambient",""
99400286145,"Contenidor de Sal *Font del Mont (Escales de la Font del Mont)","#","T","Font del Mont",23,23,22,"Vallvidrera, el Tibidabo i les Planes",5,"Sarrià-Sant Gervasi",8017,19,"BARCELONA",41.415328,2.111494,425745.91,4585244.983,425837.79799999995,4585445.946,"","","","","","","","","","Contenidors de sal","Medi ambient","Medi ambient",""
99400286146,"Contenidor de Sal *Camí de la Gírgola","#","Camí","Gírgola",11,11,23,"Sarrià",5,"Sarrià-Sant Gervasi",8017,19,"BARCELONA",41.407775,2.104752,425173.809,4584412.2360000005,425265.69200000004,4584613.191000001,"","","","","","","","","","Contenidors de sal","Medi ambient","Medi ambient",""
99400286147,"Contenidor de Sal *Passeig Vimetera - Escales Gatosa","#","Pg","Vimetera",26,26,22,"Vallvidrera, el Tibidabo i les Planes",5,"Sarrià-Sant Gervasi",8017,19,"BARCELONA",41.423704,2.0894880000000002,423916.635,4586193.976,424008.506,4586394.947,"","","","","","","","","","Contenidors de sal","Medi ambient","Medi ambient",""
99400286148,"Contenidor de Sal *Passeig Pi Forcat - Passeig Anna Rubies","#","Pg","Anna Rúbies",1,1,22,"Vallvidrera, el Tibidabo i les Planes",5,"Sarrià-Sant Gervasi",8017,19,"BARCELONA",41.422637,2.087584,423756.25899999996,4586077.133,423848.12899999996,4586278.103,"","","","","","","","","","Contenidors de sal","Medi ambient","Medi ambient",""
99400286149,"Contenidor de Sal *Pelfort - Fonolleda (Escales)","#","C","Fonolleda",19,19,22,"Vallvidrera, el Tibidabo i les Planes",5,"Sarrià-Sant Gervasi",8017,19,"BARCELONA",41.412971999999996,2.099555,424745.48,4584993.666,424837.359,4585194.626,"","","","","","","","","","Contenidors de sal","Medi ambient","Medi ambient",""
99400286151,"Contenidor de Sal *Torrent Font Mont","#","T","Font del Mont",13,13,22,"Vallvidrera, el Tibidabo i les Planes",5,"Sarrià-Sant Gervasi",8017,19,"BARCELONA",41.414871999999995,2.11183,425773.463,4585194.021000001,425865.352,4585394.983,"","","","","","","","","","Contenidors de sal","Medi ambient","Medi ambient",""
99400286153,"Contenidor de Sal *Bohemis","#","C","Bohemis",32,32,22,"Vallvidrera, el Tibidabo i les Planes",5,"Sarrià-Sant Gervasi",8017,19,"BARCELONA",41.423952,2.0955340000000002,424422.09,4586216.212,424513.966,4586417.183,"","","","","","","","","","Contenidors de sal","Medi ambient","Medi ambient",""
99400286155,"Contenidor de Sal *Gardènia - Codonyer - Savina (Escales)","#","C","Codonyer",2,2,22,"Vallvidrera, el Tibidabo i les Planes",5,"Sarrià-Sant Gervasi",8017,19,"BARCELONA",41.42568,2.098773,424694.744,4586405.227,424786.62200000003,4586606.2,"","","","","","","","","","Contenidors de sal","Medi ambient","Medi ambient",""
99400286157,"Contenidor de Sal * Camí del Salze (Escola Els Xiprers)","#","Camí","Salze",13,13,22,"Vallvidrera, el Tibidabo i les Planes",5,"Sarrià-Sant Gervasi",8017,19,"BARCELONA",41.419942999999996,2.1024689999999997,424997.039,4585765.086,425088.92,4585966.053,"","","","","","","","","","Contenidors de sal","Medi ambient","Medi ambient",""
99400286160,"Contenidor de Sal *Escola Taxonera","#","C","Pantà de Tremp",49,49,37,"el Carmel",7,"Horta-Guinardó",8032,19,"BARCELONA",41.426006,2.152526,429186.677,4586396.078,429278.597,4586597.052,"","","","","","","","","","Contenidors de sal","Medi ambient","Medi ambient",""
99400286161,"Contenidor de Sal *Hospital Vall d'Hebron","#","Pg","Vall d'Hebron",119,119,40,"Montbau",7,"Horta-Guinardó",8035,19,"BARCELONA",41.428049,2.1434580000000003,428431.218,4586630.307,428523.131,4586831.283,"","","","","","","","","","Contenidors de sal","Medi ambient","Medi ambient",""
99400286163,"Contenidor de Sal *Associació Veïns Torre Baró","#","Av","Escolapi Càncer",39,39,54,"Torre Baró",8,"Nou Barris",8033,19,"BARCELONA",41.457633,2.17909,431439.61100000003,4589885.877,431531.55,4590086.884,"","","","","","","","","","Contenidors de sal","Medi ambient","Medi ambient",""
99400286164,"Contenidor de Sal *Escola Sant Joan de la Creu","#","Av","Rasos de Peguera",232,232,55,"Ciutat Meridiana",8,"Nou Barris",8033,19,"BARCELONA",41.460132,2.169546,430645.18200000003,4590170.896000001,430737.114,4590371.906,"","","","","","","","","","Contenidors de sal","Medi ambient","Medi ambient",""
99400286165,"Contenidor de Sal *Vallcivera","#","C","Vallcivera",12,12,55,"Ciutat Meridiana",8,"Nou Barris",8033,19,"BARCELONA",41.461129,2.1790990000000003,431444.049,4590274.017,431535.98799999995,4590475.028,"","","","","","","","","","Contenidors de sal","Medi ambient","Medi ambient",""
99400286169,"Contenidor de Sal *Zona de Vianants entre l'Estació  de FCG i el Centre Cívic l'Elèctric","#","Ctra","Vallvidrera a les Planes",6,6,22,"Vallvidrera, el Tibidabo i les Planes",5,"Sarrià-Sant Gervasi",8017,19,"BARCELONA",41.419167,2.097899,424614.249,4585682.937,424706.12700000004,4585883.903,"","","","","","","","","","Contenidors de sal","Medi ambient","Medi ambient",""
99400286171,"Contenidor de Sal *Nebuloses - Ptge Mart","#","C","Nebuloses",6,6,22,"Vallvidrera, el Tibidabo i les Planes",5,"Sarrià-Sant Gervasi",8017,19,"BARCELONA",41.429748,2.09924,424738.472,4586856.399,424830.351,4587057.376,"","","","","","","","","","Contenidors de sal","Medi ambient","Medi ambient",""
99400286173,"Contenidor de Sal *Plaça Major del Rectoret - Escales Parsifal","#","Pl","Major del Rectoret",1,1,22,"Vallvidrera, el Tibidabo i les Planes",5,"Sarrià-Sant Gervasi",8017,19,"BARCELONA",41.42777,2.092085,424138.335,4586643.11,424230.208,4586844.085,"","","","","","","","","","Contenidors de sal","Medi ambient","Medi ambient",""
99400286174,"Contenidor de Sal *Carroç - Pau Feu","#","C","Pau Feu",2,2,23,"Sarrià",5,"Sarrià-Sant Gervasi",8017,19,"BARCELONA",41.408349,2.1074580000000003,425400.68200000003,4584473.588,425492.56700000004,4584674.544,"","","","","","","","","","Contenidors de sal","Medi ambient","Medi ambient",""
99400286175,"Contenidor de Sal *Carroç - Comandant Llançà","#","C","Carroç",57,57,23,"Sarrià",5,"Sarrià-Sant Gervasi",8017,19,"BARCELONA",41.408390000000004,2.1053610000000003,425225.398,4584479.944,425317.282,4584680.9,"","","","","","","","","","Contenidors de sal","Medi ambient","Medi ambient",""
99400286179,"Contenidor de Sal *Carroç - Carretera de les Aigües","#","C","Carroç",63,63,23,"Sarrià",5,"Sarrià-Sant Gervasi",8017,19,"BARCELONA",41.408646000000005,2.104971,425193.094,4584508.717,425284.977,4584709.673,"","","","","","","","","","Contenidors de sal","Medi ambient","Medi ambient",""
99400286181,"Contenidor de Sal *Azalea - Passatge Grèvol","#","Ptge","Grèvol",12,12,22,"Vallvidrera, el Tibidabo i les Planes",5,"Sarrià-Sant Gervasi",8017,19,"BARCELONA",41.421343,2.087354,423735.492,4585933.728,423827.362,4586134.697,"","","","","","","","","","Contenidors de sal","Medi ambient","Medi ambient",""
99400286182,"Contenidor de Sal *Camí Can Balasch - Turó de l'Alzina","#","Camí","Turó de l'Alzina",11,11,22,"Vallvidrera, el Tibidabo i les Planes",5,"Sarrià-Sant Gervasi",8017,19,"BARCELONA",41.42338,2.0814790000000003,423246.951,4586165.004,423338.816,4586365.975,"","","","","","","","","","Contenidors de sal","Medi ambient","Medi ambient",""
99400286188,"Contenidor de Sal *Cal Ja Hi Som","#","Drec","Vallvidrera",40,40,22,"Vallvidrera, el Tibidabo i les Planes",5,"Sarrià-Sant Gervasi",8017,19,"BARCELONA",41.412589000000004,2.1068189999999998,425352.117,4584944.858,425444.00200000004,4585145.818,"","","","","","","","","","Contenidors de sal","Medi ambient","Medi ambient",""
99400286189,"Contenidor de Sal *Reis Catòlics (Centre Cívic Vallvidriera)","#","C","Reis Catòlics",16,16,22,"Vallvidrera, el Tibidabo i les Planes",5,"Sarrià-Sant Gervasi",8000,19,"BARCELONA",41.415115,2.102805,425019.547,4585228.787,425111.429,4585429.749,"","","","","","","","","","Contenidors de sal","Medi ambient","Medi ambient",""
99400286202,"Contenidor de Sal *Camí de la Font dels Pins (Escales Ciureny)","#","Camí","Font dels Pins",16,16,22,"Vallvidrera, el Tibidabo i les Planes",5,"Sarrià-Sant Gervasi",8017,19,"BARCELONA",41.418387,2.096695,424512.675,4585597.344,424604.552,4585798.31,"","","","","","","","","","Contenidors de sal","Medi ambient","Medi ambient",""
99400286204,"Contenidor de Sal *Azalea - Mas Guimbau","#","C","Azalea",32,32,22,"Vallvidrera, el Tibidabo i les Planes",5,"Sarrià-Sant Gervasi",8017,19,"BARCELONA",41.420438,2.086779,423686.43700000003,4585833.7069999995,423778.30600000004,4586034.675,"","","","","","","","","","Contenidors de sal","Medi ambient","Medi ambient",""
99400286205,"Contenidor de Sal *Masia Can Castellví","#","Camí","Can Balasch",57,57,22,"Vallvidrera, el Tibidabo i les Planes",5,"Sarrià-Sant Gervasi",8017,19,"BARCELONA",41.429757,2.075713,422772.731,4586878.162,422864.592,4587079.1389999995,"","","","","","","","","","Contenidors de sal","Medi ambient","Medi ambient",""
99400286207,"Contenidor de Sal *Torre de Sant Salvador","#","Camí","Torre de Sansalvador",9,9,22,"Vallvidrera, el Tibidabo i les Planes",5,"Sarrià-Sant Gervasi",8017,19,"BARCELONA",41.411901,2.1055740000000003,425247.28,4584869.588,425339.164,4585070.547,"","","","","","","","","","Contenidors de sal","Medi ambient","Medi ambient",""
99400475486,"Contenidor de Sal *Hospital de la Santa Creu i Sant Pau - Sant Quintí - Reinaxença","#","C","Sant Quintí",95,95,35,"el Guinardó",7,"Horta-Guinardó",8041,19,"BARCELONA",41.415088,2.175816,431121.224,4585165.185,431213.162,4585366.149,"","","","","","","","","","Contenidors de sal","Medi ambient","Medi ambient",""
99400475493,"Contenidor de Sal *Hospital Vall d'Hebron","#","Pg","Vall d'Hebron",117,117,40,"Montbau",7,"Horta-Guinardó",8035,19,"BARCELONA",41.425727,2.1423900000000002,428339.446,4586373.46,428431.35799999995,4586574.433999999,"","","","","","","","","","Contenidors de sal","Medi ambient","Medi ambient",""
99400475507,"Contenidor de Sal *Font Balliarda","#","C","Font Baliarda",1,1,43,"Horta",7,"Horta-Guinardó",8035,19,"BARCELONA",41.44146,2.155993,429493.144,4588108.864,429585.066,4588309.853999999,"","","","","","","","","","Contenidors de sal","Medi ambient","Medi ambient",""
99400475526,"Contenidor de Sal *Boix - Lligabosc","#","C","Lligabosc",29,29,22,"Vallvidrera, el Tibidabo i les Planes",5,"Sarrià-Sant Gervasi",8017,19,"BARCELONA",41.424707,2.098986,424711.45200000005,4586296.978,424803.331,4586497.95,"","","","","","","","","","Contenidors de sal","Medi ambient","Medi ambient",""
99400475530,"Contenidor de Sal *Bohemis - Ptge Anemone","#","C","Bohemis",2,2,22,"Vallvidrera, el Tibidabo i les Planes",5,"Sarrià-Sant Gervasi",8017,19,"BARCELONA",41.424513,2.097495,424586.61799999996,4586276.779,424678.495,4586477.751,"","","","","","","","","","Contenidors de sal","Medi ambient","Medi ambient",""
99400475531,"Contenidor de Sal *Cami Balasch - Camí Can Castellvi","#","Camí","Can Castellví",12,12,22,"Vallvidrera, el Tibidabo i les Planes",5,"Sarrià-Sant Gervasi",8017,19,"BARCELONA",41.42025,2.082042,423290.381,4585817.04,423382.24700000003,4586018.007,"","","","","","","","","","Contenidors de sal","Medi ambient","Medi ambient",""
99400475537,"Contenidor de Sal *Bosc - Gratallops","#","C","Gratallops",40,40,23,"Sarrià",5,"Sarrià-Sant Gervasi",8017,19,"BARCELONA",41.413101,2.1108130000000003,425686.459,4584998.28,425778.347,4585199.24,"","","","","","","","","","Contenidors de sal","Medi ambient","Medi ambient",""
99400475540,"Contenidor de Sal *Bosc - Santpedor","#","C","Santpedor",34,34,23,"Sarrià",5,"Sarrià-Sant Gervasi",8017,19,"BARCELONA",41.412059,2.110284,425641.089,4584883.053,425732.976,4585084.012,"","","","","","","","","","Contenidors de sal","Medi ambient","Medi ambient",""
99400475543,"Contenidor de Sal *Ctra Aigües 67","#","Ctra","Aigües",67,67,22,"Vallvidrera, el Tibidabo i les Planes",5,"Sarrià-Sant Gervasi",8017,19,"BARCELONA",41.40252,2.10564,425242.016,4583828.103,425333.9,4584029.052,"","","","","","","","","","Contenidors de sal","Medi ambient","Medi ambient",""
