"Any","Indicador","Equipament","Valor","Notes_Dades","Notes_Equipament","Codi_Districte","Nom_Districte","Codi_Barri","Nom_Barri","Titularitat","TipusGeneral","TipusEquipament","Ambit","Latitud","Longitud"
2019,"Total Activitats Difusió","Centre Cívic Golferichs",123,"A partir de 2018 inclou espectacles i xerrades, i no les activitats relacionades amb les exposicions, que sí que s'havien comptat fins 2017.","",2,"Eixample",9,"la Nova Esquerra de l'Eixample","Municipal","Centres cívics","Centres cívics","Multidisciplinaris i altres",41.380813341,2.156392101
2019,"Total Assistents Activitats Difusio","Centre Cultural Albareda",8051,"A partir de 2018 inclou espectacles i xerrades, i no les activitats relacionades amb les exposicions, que sí que s'havien comptat fins 2017.","",3,"Sants-Montjuïc",11,"el Poble-sec","Municipal","Centres cívics","Centres cívics","Multidisciplinaris i altres",41.373999934000004,2.173269239
2019,"Total Activitats Difusió","Centre Cívic Fort Pienc",99,"A partir de 2018 inclou espectacles i xerrades, i no les activitats relacionades amb les exposicions, que sí que s'havien comptat fins 2017.","",2,"Eixample",5,"el Fort Pienc","Municipal","Centres cívics","Centres cívics","Multidisciplinaris i altres",41.395557419,2.182446362
2019,"Total Assistents Activitats Difusio","Centre Cívic Vil·la Urània",4277,"A partir de 2018 inclou espectacles i xerrades, i no les activitats relacionades amb les exposicions, que sí que s'havien comptat fins 2017.","",5,"Sarrià-Sant Gervasi",27,"el Putxet i el Farró","Municipal","Centres cívics","Centres cívics","Multidisciplinaris i altres",41.3986429,2.14276
2019,"Total Assistents Activitats Difusio","Centre Cívic Zona Nord",17443,"A partir de 2018 inclou espectacles i xerrades, i no les activitats relacionades amb les exposicions, que sí que s'havien comptat fins 2017.","",8,"Nou Barris",55,"Ciutat Meridiana","Municipal","Centres cívics","Centres cívics","Multidisciplinaris i altres",41.461113806,2.177397304
2019,"Total Activitats Difusió","Centre Cívic Guinardó",97,"A partir de 2018 inclou espectacles i xerrades, i no les activitats relacionades amb les exposicions, que sí que s'havien comptat fins 2017.","",7,"Horta-Guinardó",35,"el Guinardó","Municipal","Centres cívics","Centres cívics","Multidisciplinaris i altres",41.416056397,2.1733228909999998
2019,"Total Assistents Activitats Difusio","Centre Cívic Vil·la Florida",2084,"A partir de 2018 inclou espectacles i xerrades, i no les activitats relacionades amb les exposicions, que sí que s'havien comptat fins 2017.","",5,"Sarrià-Sant Gervasi",25,"Sant Gervasi - la Bonanova","Municipal","Centres cívics","Centres cívics","Multidisciplinaris i altres",41.40533741,2.135294028
2019,"Total Assistents Activitats Difusio","Centre Cívic Can Felipa",7679,"A partir de 2018 inclou espectacles i xerrades, i no les activitats relacionades amb les exposicions, que sí que s'havien comptat fins 2017.","",10,"Sant Martí",68,"el Poblenou","Municipal","Centres cívics","Centres cívics","Multidisciplinaris i altres",41.404013272,2.201386526
2019,"Total Activitats Difusió","Centre Cívic La Sedeta",151,"A partir de 2018 inclou espectacles i xerrades, i no les activitats relacionades amb les exposicions, que sí que s'havien comptat fins 2017.","",6,"Gràcia",32,"el Camp d'en Grassot i Gràcia Nova","Municipal","Centres cívics","Centres cívics","Multidisciplinaris i altres",41.40554894,2.167665468
2019,"Total Assistents Activitats Difusio","Centre Cívic Can Deu",2346,"A partir de 2018 inclou espectacles i xerrades, i no les activitats relacionades amb les exposicions, que sí que s'havien comptat fins 2017.","",4,"Les Corts",19,"les Corts","Municipal","Centres cívics","Centres cívics","Multidisciplinaris i altres",41.386760961,2.1325020759999997
2019,"Total Assistents Activitats Difusio","Centre Cívic Navas",7943,"A partir de 2018 inclou espectacles i xerrades, i no les activitats relacionades amb les exposicions, que sí que s'havien comptat fins 2017.","",9,"Sant Andreu",63,"Navas","Municipal","Centres cívics","Centres cívics","Multidisciplinaris i altres",41.416904706,2.184919133
2019,"Total Activitats Difusió","Centre Cívic Can Verdaguer",137,"A partir de 2018 inclou espectacles i xerrades, i no les activitats relacionades amb les exposicions, que sí que s'havien comptat fins 2017.","",8,"Nou Barris",45,"Porta","Municipal","Centres cívics","Centres cívics","Multidisciplinaris i altres",41.433977414,2.1790802780000003
2019,"Total Assistents Activitats Difusio","Centre Cívic Matas i Ramis",4801,"A partir de 2018 inclou espectacles i xerrades, i no les activitats relacionades amb les exposicions, que sí que s'havien comptat fins 2017.","",7,"Horta-Guinardó",43,"Horta","Municipal","Centres cívics","Centres cívics","Multidisciplinaris i altres",41.432755073,2.160711473
2019,"Total Activitats Difusió","Centre Cívic Torre Llobeta",178,"A partir de 2018 inclou espectacles i xerrades, i no les activitats relacionades amb les exposicions, que sí que s'havien comptat fins 2017.","",8,"Nou Barris",44,"Vilapicina i la Torre Llobeta","Municipal","Centres cívics","Centres cívics","Multidisciplinaris i altres",41.426896898,2.173951442
2019,"Total Assistents Activitats Difusio","Centre Cívic Drassanes",5410,"A partir de 2018 inclou espectacles i xerrades, i no les activitats relacionades amb les exposicions, que sí que s'havien comptat fins 2017.","",1,"Ciutat Vella",1,"el Raval","Municipal","Centres cívics","Centres cívics","Multidisciplinaris i altres",41.377644996,2.172852395
2019,"Total Activitats Difusió","Centre Cívic Tomasa Cuevas - Les Corts",82,"A partir de 2018 inclou espectacles i xerrades, i no les activitats relacionades amb les exposicions, que sí que s'havien comptat fins 2017.","",4,"Les Corts",19,"les Corts","Municipal","Centres cívics","Centres cívics","Multidisciplinaris i altres",41.384783744,2.1283183969999997
2019,"Total Activitats Difusió","Centre Cívic del Parc - Sandaru",110,"A partir de 2018 inclou espectacles i xerrades, i no les activitats relacionades amb les exposicions, que sí que s'havien comptat fins 2017.","",10,"Sant Martí",66,"el Parc i la Llacuna del Poblenou","Municipal","Centres cívics","Centres cívics","Multidisciplinaris i altres",41.391718569,2.184755119
2019,"Total Assistents Activitats Difusio","Centre Cívic El Carmel",3807,"A partir de 2018 inclou espectacles i xerrades, i no les activitats relacionades amb les exposicions, que sí que s'havien comptat fins 2017.","",7,"Horta-Guinardó",37,"el Carmel","Municipal","Centres cívics","Centres cívics","Multidisciplinaris i altres",41.420263994,2.151191237
2019,"Total Assistents Activitats Difusio","Centre Cívic Teixonera",3844,"A partir de 2018 inclou espectacles i xerrades, i no les activitats relacionades amb les exposicions, que sí que s'havien comptat fins 2017.","",7,"Horta-Guinardó",38,"la Teixonera","Municipal","Centres cívics","Centres cívics","Multidisciplinaris i altres",41.422637884000004,2.1445545580000003
2019,"Total Assistents Activitats Difusio","Centre Cultural la Farinera del Clot",9332,"A partir de 2018 inclou espectacles i xerrades, i no les activitats relacionades amb les exposicions, que sí que s'havien comptat fins 2017.","",10,"Sant Martí",65,"el Clot","Municipal","Centres cívics","Centres cívics","Multidisciplinaris i altres",41.404913599000004,2.188442671
2019,"Total Activitats Difusió","Centre Cívic Josep M. Trias i Peitx - Riera Blanca",76,"A partir de 2018 inclou espectacles i xerrades, i no les activitats relacionades amb les exposicions, que sí que s'havien comptat fins 2017.","",4,"Les Corts",20,"la Maternitat i Sant Ramon","Municipal","Centres cívics","Centres cívics","Multidisciplinaris i altres",41.377780128000005,2.121762772
2019,"Total Assistents Activitats Difusio","Centre Cívic Baró de Viver",7350,"A partir de 2018 inclou espectacles i xerrades, i no les activitats relacionades amb les exposicions, que sí que s'havien comptat fins 2017.","",9,"Sant Andreu",58,"Baró de Viver","Municipal","Centres cívics","Centres cívics","Multidisciplinaris i altres",41.448391924,2.199921143
2019,"Total Activitats Difusió","Centre Cívic Joan Oliver - Pere Quart",107,"A partir de 2018 inclou espectacles i xerrades, i no les activitats relacionades amb les exposicions, que sí que s'havien comptat fins 2017.","",4,"Les Corts",20,"la Maternitat i Sant Ramon","Municipal","Centres cívics","Centres cívics","Multidisciplinaris i altres",41.379302926,2.1277577030000003
2019,"Total Assistents Activitats Difusio","Centre Cívic Barceloneta",12703,"A partir de 2018 inclou espectacles i xerrades, i no les activitats relacionades amb les exposicions, que sí que s'havien comptat fins 2017.","",1,"Ciutat Vella",3,"la Barceloneta","Municipal","Centres cívics","Centres cívics","Multidisciplinaris i altres",41.380269123000005,2.19230079
2019,"Total Activitats Difusió","Centre Cívic l'Elèctric",44,"A partir de 2018 inclou espectacles i xerrades, i no les activitats relacionades amb les exposicions, que sí que s'havien comptat fins 2017.","",5,"Sarrià-Sant Gervasi",22,"Vallvidrera, el Tibidabo i les Planes","Municipal","Centres cívics","Centres cívics","Multidisciplinaris i altres",41.41913796,2.097871834
2019,"Total Assistents Activitats Difusio","Centre Cívic Besòs",3254,"A partir de 2018 inclou espectacles i xerrades, i no les activitats relacionades amb les exposicions, que sí que s'havien comptat fins 2017.","",10,"Sant Martí",70,"el Besòs i el Maresme","Municipal","Centres cívics","Centres cívics","Multidisciplinaris i altres",41.416306001,2.211478868
2019,"Total Assistents Activitats Difusio","Centre Cívic Casa Groga",5591,"A partir de 2018 inclou espectacles i xerrades, i no les activitats relacionades amb les exposicions, que sí que s'havien comptat fins 2017.","",7,"Horta-Guinardó",39,"Sant Genís dels Agudells","Municipal","Centres cívics","Centres cívics","Multidisciplinaris i altres",41.42686342,2.137450112
2019,"Total Assistents Activitats Difusio","Centre Cívic Pati Llimona",13958,"A partir de 2018 inclou espectacles i xerrades, i no les activitats relacionades amb les exposicions, que sí que s'havien comptat fins 2017.","",1,"Ciutat Vella",2,"el Barri Gòtic","Municipal","Centres cívics","Centres cívics","Multidisciplinaris i altres",41.381635545,2.179176281
2019,"Total Activitats Difusió","Centre Cívic Casa del Rellotge",54,"A partir de 2018 inclou espectacles i xerrades, i no les activitats relacionades amb les exposicions, que sí que s'havien comptat fins 2017.","",3,"Sants-Montjuïc",13,"la Marina de Port","Municipal","Centres cívics","Centres cívics","Multidisciplinaris i altres",41.357544067,2.1413899219999997
2019,"Total Assistents Activitats Difusio","Centre Cívic Sagrada Família",5853,"A partir de 2018 inclou espectacles i xerrades, i no les activitats relacionades amb les exposicions, que sí que s'havien comptat fins 2017.","",2,"Eixample",6,"la Sagrada Família","Municipal","Centres cívics","Centres cívics","Multidisciplinaris i altres",41.405380126,2.176760148
2019,"Total Assistents Activitats Difusio","Centre Cívic Casa Orlandai",9622,"A partir de 2018 inclou espectacles i xerrades, i no les activitats relacionades amb les exposicions, que sí que s'havien comptat fins 2017.","",5,"Sarrià-Sant Gervasi",23,"Sarrià","Municipal","Centres cívics","Centres cívics","Multidisciplinaris i altres",41.398330273,2.124656447
2019,"Total Assistents Activitats Difusio","Centre Cívic Pere Pruna",5847,"A partir de 2018 inclou espectacles i xerrades, i no les activitats relacionades amb les exposicions, que sí que s'havien comptat fins 2017.","",5,"Sarrià-Sant Gervasi",25,"Sant Gervasi - la Bonanova","Municipal","Centres cívics","Centres cívics","Multidisciplinaris i altres",41.403181601,2.131302875
2019,"Total Activitats Difusió","Centre Cívic Vallvidrera Vázquez Montalbán",39,"A partir de 2018 inclou espectacles i xerrades, i no les activitats relacionades amb les exposicions, que sí que s'havien comptat fins 2017.","",5,"Sarrià-Sant Gervasi",22,"Vallvidrera, el Tibidabo i les Planes","Municipal","Centres cívics","Centres cívics","Multidisciplinaris i altres",41.415364217,2.102530794
2019,"Total Assistents Activitats Difusio","Centre Cívic El Sortidor",2079,"A partir de 2018 inclou espectacles i xerrades, i no les activitats relacionades amb les exposicions, que sí que s'havien comptat fins 2017.","",3,"Sants-Montjuïc",11,"el Poble-sec","Municipal","Centres cívics","Centres cívics","Multidisciplinaris i altres",41.372066796999995,2.1625317280000003
2019,"Total Activitats Difusió","Centre Cívic Urgell",140,"A partir de 2018 inclou espectacles i xerrades, i no les activitats relacionades amb les exposicions, que sí que s'havien comptat fins 2017.","",2,"Eixample",9,"la Nova Esquerra de l'Eixample","Municipal","Centres cívics","Centres cívics","Multidisciplinaris i altres",41.386861397,2.152032146
2019,"Total Assistents Activitats Difusio","Centre Cívic El Coll - La Bruguera",2580,"A partir de 2018 inclou espectacles i xerrades, i no les activitats relacionades amb les exposicions, que sí que s'havien comptat fins 2017.","",6,"Gràcia",29,"el Coll","Municipal","Centres cívics","Centres cívics","Multidisciplinaris i altres",41.418579055,2.149896871
2019,"Total Activitats Difusió","Centre Cívic Vil·la Florida",60,"A partir de 2018 inclou espectacles i xerrades, i no les activitats relacionades amb les exposicions, que sí que s'havien comptat fins 2017.","",5,"Sarrià-Sant Gervasi",25,"Sant Gervasi - la Bonanova","Municipal","Centres cívics","Centres cívics","Multidisciplinaris i altres",41.40533741,2.135294028
2019,"Total Activitats Difusió","Centre Cívic Font de la Guatlla",48,"A partir de 2018 inclou espectacles i xerrades, i no les activitats relacionades amb les exposicions, que sí que s'havien comptat fins 2017.","",3,"Sants-Montjuïc",14,"la Font de la Guatlla","Municipal","Centres cívics","Centres cívics","Multidisciplinaris i altres",41.370560397,2.147508546
2019,"Total Activitats Difusió","Centre Cívic Trinitat Vella",27,"A partir de 2018 inclou espectacles i xerrades, i no les activitats relacionades amb les exposicions, que sí que s'havien comptat fins 2017.","",9,"Sant Andreu",57,"la Trinitat Vella","Municipal","Centres cívics","Centres cívics","Multidisciplinaris i altres",41.451618626999995,2.1911896
2019,"Total Assistents Activitats Difusio","Centre Cívic Can Clariana Cultural",8108,"A partir de 2018 inclou espectacles i xerrades, i no les activitats relacionades amb les exposicions, que sí que s'havien comptat fins 2017.","",9,"Sant Andreu",62,"el Congrés i els Indians","Municipal","Centres cívics","Centres cívics","Multidisciplinaris i altres",41.42751810000001,2.178412
2019,"Total Activitats Difusió","Centre Cívic La Cadena",27,"A partir de 2018 inclou espectacles i xerrades, i no les activitats relacionades amb les exposicions, que sí que s'havien comptat fins 2017.","",3,"Sants-Montjuïc",13,"la Marina de Port","Municipal","Centres cívics","Centres cívics","Multidisciplinaris i altres",41.364156288000004,2.139067245
2019,"Total Assistents Activitats Difusio","Centre Cívic Bon Pastor",3049,"A partir de 2018 inclou espectacles i xerrades, i no les activitats relacionades amb les exposicions, que sí que s'havien comptat fins 2017.","",9,"Sant Andreu",59,"el Bon Pastor","Municipal","Centres cívics","Centres cívics","Multidisciplinaris i altres",41.434780210999996,2.2049117959999998
2019,"Total Activitats Difusió","Centre Cívic La Sagrera",83,"A partir de 2018 inclou espectacles i xerrades, i no les activitats relacionades amb les exposicions, que sí que s'havien comptat fins 2017.","",9,"Sant Andreu",61,"la Sagrera","Municipal","Centres cívics","Centres cívics","Multidisciplinaris i altres",41.423942321,2.189139414
2019,"Total Assistents Activitats Difusio","Centre Cívic Can Castelló",766,"A partir de 2018 inclou espectacles i xerrades, i no les activitats relacionades amb les exposicions, que sí que s'havien comptat fins 2017.","",5,"Sarrià-Sant Gervasi",26,"Sant Gervasi - Galvany","Municipal","Centres cívics","Centres cívics","Multidisciplinaris i altres",41.399005576,2.14016297
2019,"Total Activitats Difusió","Centre Cívic La Casa Elizalde",133,"A partir de 2018 inclou espectacles i xerrades, i no les activitats relacionades amb les exposicions, que sí que s'havien comptat fins 2017.","",2,"Eixample",7,"la Dreta de Eixample","Municipal","Centres cívics","Centres cívics","Multidisciplinaris i altres",41.394483818000005,2.165880676
2019,"Total Assistents Activitats Difusio","Centre Cívic Can Basté",5954,"A partir de 2018 inclou espectacles i xerrades, i no les activitats relacionades amb les exposicions, que sí que s'havien comptat fins 2017.","",8,"Nou Barris",46,"el Turó de la Peira","Municipal","Centres cívics","Centres cívics","Multidisciplinaris i altres",41.430458546,2.173212158
2019,"Total Assistents Activitats Difusio","Centre Cívic Cotxeres de Sants",44695,"Inclou les dades del Casinet d'Hostafrancs. / A partir de 2018 inclou espectacles i xerrades, i no les activitats relacionades amb les exposicions, que sí que s'havien comptat fins 2017.","",3,"Sants-Montjuïc",18,"Sants","Municipal","Centres cívics","Centres cívics","Multidisciplinaris i altres",41.375264199,2.136876024
2019,"Total Assistents Activitats Difusio","Centre Cívic Sant Andreu",4967,"A partir de 2018 inclou espectacles i xerrades, i no les activitats relacionades amb les exposicions, que sí que s'havien comptat fins 2017.","",9,"Sant Andreu",60,"Sant Andreu","Municipal","Centres cívics","Centres cívics","Multidisciplinaris i altres",41.430852888000004,2.189400581
2019,"Total Activitats Difusió","Centre Cívic Cotxeres Borrell",90,"A partir de 2018 inclou espectacles i xerrades, i no les activitats relacionades amb les exposicions, que sí que s'havien comptat fins 2017.","",2,"Eixample",10,"Sant Antoni","Municipal","Centres cívics","Centres cívics","Multidisciplinaris i altres",41.375908694,2.163176076
2019,"Total Assistents Activitats Difusio","Centre Cívic Sarrià",3467,"A partir de 2018 inclou espectacles i xerrades, i no les activitats relacionades amb les exposicions, que sí que s'havien comptat fins 2017.","",5,"Sarrià-Sant Gervasi",23,"Sarrià","Municipal","Centres cívics","Centres cívics","Multidisciplinaris i altres",41.393871979000004,2.121163587
2019,"Total Activitats Difusió","Centre Cívic Convent de Sant Agustí",209,"A partir de 2018 inclou espectacles i xerrades, i no les activitats relacionades amb les exposicions, que sí que s'havien comptat fins 2017.","",1,"Ciutat Vella",4,"Sant Pere, Santa Caterina i la Ribera","Municipal","Centres cívics","Centres cívics","Multidisciplinaris i altres",41.387391384000004,2.181711349
2019,"Total Assistents Activitats Difusio","Centre Cívic Sant Martí",25988,"A partir de 2018 inclou espectacles i xerrades, i no les activitats relacionades amb les exposicions, que sí que s'havien comptat fins 2017.","",10,"Sant Martí",72,"Sant Martí de Provençals","Municipal","Centres cívics","Centres cívics","Multidisciplinaris i altres",41.416622171,2.1985638130000003
2019,"Total Assistents Activitats Difusio","Centre Cívic Golferichs",6607,"A partir de 2018 inclou espectacles i xerrades, i no les activitats relacionades amb les exposicions, que sí que s'havien comptat fins 2017.","",2,"Eixample",9,"la Nova Esquerra de l'Eixample","Municipal","Centres cívics","Centres cívics","Multidisciplinaris i altres",41.380813341,2.156392101
2019,"Total Activitats Difusió","Centre Cultural Albareda",103,"A partir de 2018 inclou espectacles i xerrades, i no les activitats relacionades amb les exposicions, que sí que s'havien comptat fins 2017.","",3,"Sants-Montjuïc",11,"el Poble-sec","Municipal","Centres cívics","Centres cívics","Multidisciplinaris i altres",41.373999934000004,2.173269239
2019,"Total Activitats Difusió","Centre Cívic Vil·la Urània",136,"A partir de 2018 inclou espectacles i xerrades, i no les activitats relacionades amb les exposicions, que sí que s'havien comptat fins 2017.","",5,"Sarrià-Sant Gervasi",27,"el Putxet i el Farró","Municipal","Centres cívics","Centres cívics","Multidisciplinaris i altres",41.3986429,2.14276
2019,"Total Assistents Activitats Difusio","Centre Cívic Fort Pienc",11601,"A partir de 2018 inclou espectacles i xerrades, i no les activitats relacionades amb les exposicions, que sí que s'havien comptat fins 2017.","",2,"Eixample",5,"el Fort Pienc","Municipal","Centres cívics","Centres cívics","Multidisciplinaris i altres",41.395557419,2.182446362
2019,"Total Activitats Difusió","Centre Cívic Zona Nord",141,"A partir de 2018 inclou espectacles i xerrades, i no les activitats relacionades amb les exposicions, que sí que s'havien comptat fins 2017.","",8,"Nou Barris",55,"Ciutat Meridiana","Municipal","Centres cívics","Centres cívics","Multidisciplinaris i altres",41.461113806,2.177397304
2019,"Total Assistents Activitats Difusio","Centre Cívic Guinardó",3481,"A partir de 2018 inclou espectacles i xerrades, i no les activitats relacionades amb les exposicions, que sí que s'havien comptat fins 2017.","",7,"Horta-Guinardó",35,"el Guinardó","Municipal","Centres cívics","Centres cívics","Multidisciplinaris i altres",41.416056397,2.1733228909999998
2019,"Total Activitats Difusió","Centre Cívic Can Felipa",95,"A partir de 2018 inclou espectacles i xerrades, i no les activitats relacionades amb les exposicions, que sí que s'havien comptat fins 2017.","",10,"Sant Martí",68,"el Poblenou","Municipal","Centres cívics","Centres cívics","Multidisciplinaris i altres",41.404013272,2.201386526
2019,"Total Assistents Activitats Difusio","Centre Cívic La Sedeta",23237,"A partir de 2018 inclou espectacles i xerrades, i no les activitats relacionades amb les exposicions, que sí que s'havien comptat fins 2017.","",6,"Gràcia",32,"el Camp d'en Grassot i Gràcia Nova","Municipal","Centres cívics","Centres cívics","Multidisciplinaris i altres",41.40554894,2.167665468
2019,"Total Activitats Difusió","Centre Cívic Navas",89,"A partir de 2018 inclou espectacles i xerrades, i no les activitats relacionades amb les exposicions, que sí que s'havien comptat fins 2017.","",9,"Sant Andreu",63,"Navas","Municipal","Centres cívics","Centres cívics","Multidisciplinaris i altres",41.416904706,2.184919133
2019,"Total Activitats Difusió","Centre Cívic Can Deu",66,"A partir de 2018 inclou espectacles i xerrades, i no les activitats relacionades amb les exposicions, que sí que s'havien comptat fins 2017.","",4,"Les Corts",19,"les Corts","Municipal","Centres cívics","Centres cívics","Multidisciplinaris i altres",41.386760961,2.1325020759999997
2019,"Total Assistents Activitats Difusio","Centre Cívic Can Verdaguer",3730,"A partir de 2018 inclou espectacles i xerrades, i no les activitats relacionades amb les exposicions, que sí que s'havien comptat fins 2017.","",8,"Nou Barris",45,"Porta","Municipal","Centres cívics","Centres cívics","Multidisciplinaris i altres",41.433977414,2.1790802780000003
2019,"Total Activitats Difusió","Centre Cívic Matas i Ramis",93,"A partir de 2018 inclou espectacles i xerrades, i no les activitats relacionades amb les exposicions, que sí que s'havien comptat fins 2017.","",7,"Horta-Guinardó",43,"Horta","Municipal","Centres cívics","Centres cívics","Multidisciplinaris i altres",41.432755073,2.160711473
2019,"Total Activitats Difusió","Centre Cívic Teixonera",85,"A partir de 2018 inclou espectacles i xerrades, i no les activitats relacionades amb les exposicions, que sí que s'havien comptat fins 2017.","",7,"Horta-Guinardó",38,"la Teixonera","Municipal","Centres cívics","Centres cívics","Multidisciplinaris i altres",41.422637884000004,2.1445545580000003
2019,"Total Activitats Difusió","Centre Cívic Drassanes",123,"A partir de 2018 inclou espectacles i xerrades, i no les activitats relacionades amb les exposicions, que sí que s'havien comptat fins 2017.","",1,"Ciutat Vella",1,"el Raval","Municipal","Centres cívics","Centres cívics","Multidisciplinaris i altres",41.377644996,2.172852395
2019,"Total Assistents Activitats Difusio","Centre Cívic Torre Llobeta",8961,"A partir de 2018 inclou espectacles i xerrades, i no les activitats relacionades amb les exposicions, que sí que s'havien comptat fins 2017.","",8,"Nou Barris",44,"Vilapicina i la Torre Llobeta","Municipal","Centres cívics","Centres cívics","Multidisciplinaris i altres",41.426896898,2.173951442
2019,"Total Assistents Activitats Difusio","Centre Cívic del Parc - Sandaru",9566,"A partir de 2018 inclou espectacles i xerrades, i no les activitats relacionades amb les exposicions, que sí que s'havien comptat fins 2017.","",10,"Sant Martí",66,"el Parc i la Llacuna del Poblenou","Municipal","Centres cívics","Centres cívics","Multidisciplinaris i altres",41.391718569,2.184755119
2019,"Total Assistents Activitats Difusio","Centre Cívic Tomasa Cuevas - Les Corts",5680,"A partir de 2018 inclou espectacles i xerrades, i no les activitats relacionades amb les exposicions, que sí que s'havien comptat fins 2017.","",4,"Les Corts",19,"les Corts","Municipal","Centres cívics","Centres cívics","Multidisciplinaris i altres",41.384783744,2.1283183969999997
2019,"Total Activitats Difusió","Centre Cívic El Carmel",39,"A partir de 2018 inclou espectacles i xerrades, i no les activitats relacionades amb les exposicions, que sí que s'havien comptat fins 2017.","",7,"Horta-Guinardó",37,"el Carmel","Municipal","Centres cívics","Centres cívics","Multidisciplinaris i altres",41.420263994,2.151191237
2019,"Total Activitats Difusió","Centre Cívic Baró de Viver",153,"A partir de 2018 inclou espectacles i xerrades, i no les activitats relacionades amb les exposicions, que sí que s'havien comptat fins 2017.","",9,"Sant Andreu",58,"Baró de Viver","Municipal","Centres cívics","Centres cívics","Multidisciplinaris i altres",41.448391924,2.199921143
2019,"Total Assistents Activitats Difusio","Centre Cívic Josep M. Trias i Peitx - Riera Blanca",4287,"A partir de 2018 inclou espectacles i xerrades, i no les activitats relacionades amb les exposicions, que sí que s'havien comptat fins 2017.","",4,"Les Corts",20,"la Maternitat i Sant Ramon","Municipal","Centres cívics","Centres cívics","Multidisciplinaris i altres",41.377780128000005,2.121762772
2019,"Total Activitats Difusió","Centre Cívic Bon Pastor",55,"A partir de 2018 inclou espectacles i xerrades, i no les activitats relacionades amb les exposicions, que sí que s'havien comptat fins 2017.","",9,"Sant Andreu",59,"el Bon Pastor","Municipal","Centres cívics","Centres cívics","Multidisciplinaris i altres",41.434780210999996,2.2049117959999998
2019,"Total Activitats Difusió","Centre Cívic Barceloneta",154,"A partir de 2018 inclou espectacles i xerrades, i no les activitats relacionades amb les exposicions, que sí que s'havien comptat fins 2017.","",1,"Ciutat Vella",3,"la Barceloneta","Municipal","Centres cívics","Centres cívics","Multidisciplinaris i altres",41.380269123000005,2.19230079
2019,"Total Assistents Activitats Difusio","Centre Cívic Joan Oliver - Pere Quart",6829,"A partir de 2018 inclou espectacles i xerrades, i no les activitats relacionades amb les exposicions, que sí que s'havien comptat fins 2017.","",4,"Les Corts",20,"la Maternitat i Sant Ramon","Municipal","Centres cívics","Centres cívics","Multidisciplinaris i altres",41.379302926,2.1277577030000003
2019,"Total Activitats Difusió","Centre Cívic Besòs",68,"A partir de 2018 inclou espectacles i xerrades, i no les activitats relacionades amb les exposicions, que sí que s'havien comptat fins 2017.","",10,"Sant Martí",70,"el Besòs i el Maresme","Municipal","Centres cívics","Centres cívics","Multidisciplinaris i altres",41.416306001,2.211478868
2019,"Total Assistents Activitats Difusio","Centre Cívic l'Elèctric",1026,"A partir de 2018 inclou espectacles i xerrades, i no les activitats relacionades amb les exposicions, que sí que s'havien comptat fins 2017.","",5,"Sarrià-Sant Gervasi",22,"Vallvidrera, el Tibidabo i les Planes","Municipal","Centres cívics","Centres cívics","Multidisciplinaris i altres",41.41913796,2.097871834
2019,"Total Activitats Difusió","Centre Cultural la Farinera del Clot",92,"A partir de 2018 inclou espectacles i xerrades, i no les activitats relacionades amb les exposicions, que sí que s'havien comptat fins 2017.","",10,"Sant Martí",65,"el Clot","Municipal","Centres cívics","Centres cívics","Multidisciplinaris i altres",41.404913599000004,2.188442671
2019,"Total Activitats Difusió","Centre Cívic Casa Groga",57,"A partir de 2018 inclou espectacles i xerrades, i no les activitats relacionades amb les exposicions, que sí que s'havien comptat fins 2017.","",7,"Horta-Guinardó",39,"Sant Genís dels Agudells","Municipal","Centres cívics","Centres cívics","Multidisciplinaris i altres",41.42686342,2.137450112
2019,"Total Activitats Difusió","Centre Cívic Pati Llimona",316,"A partir de 2018 inclou espectacles i xerrades, i no les activitats relacionades amb les exposicions, que sí que s'havien comptat fins 2017.","",1,"Ciutat Vella",2,"el Barri Gòtic","Municipal","Centres cívics","Centres cívics","Multidisciplinaris i altres",41.381635545,2.179176281
2019,"Total Activitats Difusió","Centre Cívic Sagrada Família",92,"A partir de 2018 inclou espectacles i xerrades, i no les activitats relacionades amb les exposicions, que sí que s'havien comptat fins 2017.","",2,"Eixample",6,"la Sagrada Família","Municipal","Centres cívics","Centres cívics","Multidisciplinaris i altres",41.405380126,2.176760148
2019,"Total Assistents Activitats Difusio","Centre Cívic Casa del Rellotge",3123,"A partir de 2018 inclou espectacles i xerrades, i no les activitats relacionades amb les exposicions, que sí que s'havien comptat fins 2017.","",3,"Sants-Montjuïc",13,"la Marina de Port","Municipal","Centres cívics","Centres cívics","Multidisciplinaris i altres",41.357544067,2.1413899219999997
2019,"Total Activitats Difusió","Centre Cívic Casa Orlandai",216,"A partir de 2018 inclou espectacles i xerrades, i no les activitats relacionades amb les exposicions, que sí que s'havien comptat fins 2017.","",5,"Sarrià-Sant Gervasi",23,"Sarrià","Municipal","Centres cívics","Centres cívics","Multidisciplinaris i altres",41.398330273,2.124656447
2019,"Total Activitats Difusió","Centre Cívic Pere Pruna",71,"A partir de 2018 inclou espectacles i xerrades, i no les activitats relacionades amb les exposicions, que sí que s'havien comptat fins 2017.","",5,"Sarrià-Sant Gervasi",25,"Sant Gervasi - la Bonanova","Municipal","Centres cívics","Centres cívics","Multidisciplinaris i altres",41.403181601,2.131302875
2019,"Total Activitats Difusió","Centre Cívic El Sortidor",72,"A partir de 2018 inclou espectacles i xerrades, i no les activitats relacionades amb les exposicions, que sí que s'havien comptat fins 2017.","",3,"Sants-Montjuïc",11,"el Poble-sec","Municipal","Centres cívics","Centres cívics","Multidisciplinaris i altres",41.372066796999995,2.1625317280000003
2019,"Total Assistents Activitats Difusio","Centre Cívic Vallvidrera Vázquez Montalbán",3118,"A partir de 2018 inclou espectacles i xerrades, i no les activitats relacionades amb les exposicions, que sí que s'havien comptat fins 2017.","",5,"Sarrià-Sant Gervasi",22,"Vallvidrera, el Tibidabo i les Planes","Municipal","Centres cívics","Centres cívics","Multidisciplinaris i altres",41.415364217,2.102530794
2019,"Total Activitats Difusió","Centre Cívic El Coll - La Bruguera",55,"A partir de 2018 inclou espectacles i xerrades, i no les activitats relacionades amb les exposicions, que sí que s'havien comptat fins 2017.","",6,"Gràcia",29,"el Coll","Municipal","Centres cívics","Centres cívics","Multidisciplinaris i altres",41.418579055,2.149896871
2019,"Total Assistents Activitats Difusio","Centre Cívic Urgell",18157,"A partir de 2018 inclou espectacles i xerrades, i no les activitats relacionades amb les exposicions, que sí que s'havien comptat fins 2017.","",2,"Eixample",9,"la Nova Esquerra de l'Eixample","Municipal","Centres cívics","Centres cívics","Multidisciplinaris i altres",41.386861397,2.152032146
2019,"Total Assistents Activitats Difusio","Centre Cívic Font de la Guatlla",1926,"A partir de 2018 inclou espectacles i xerrades, i no les activitats relacionades amb les exposicions, que sí que s'havien comptat fins 2017.","",3,"Sants-Montjuïc",14,"la Font de la Guatlla","Municipal","Centres cívics","Centres cívics","Multidisciplinaris i altres",41.370560397,2.147508546
2019,"Total Assistents Activitats Difusio","Centre Cívic Trinitat Vella",3430,"A partir de 2018 inclou espectacles i xerrades, i no les activitats relacionades amb les exposicions, que sí que s'havien comptat fins 2017.","",9,"Sant Andreu",57,"la Trinitat Vella","Municipal","Centres cívics","Centres cívics","Multidisciplinaris i altres",41.451618626999995,2.1911896
2019,"Total Assistents Activitats Difusio","Centre Cívic La Casa Elizalde",11579,"A partir de 2018 inclou espectacles i xerrades, i no les activitats relacionades amb les exposicions, que sí que s'havien comptat fins 2017.","",2,"Eixample",7,"la Dreta de Eixample","Municipal","Centres cívics","Centres cívics","Multidisciplinaris i altres",41.394483818000005,2.165880676
2019,"Total Activitats Difusió","Centre Cívic Can Clariana Cultural",131,"A partir de 2018 inclou espectacles i xerrades, i no les activitats relacionades amb les exposicions, que sí que s'havien comptat fins 2017.","",9,"Sant Andreu",62,"el Congrés i els Indians","Municipal","Centres cívics","Centres cívics","Multidisciplinaris i altres",41.42751810000001,2.178412
2019,"Total Assistents Activitats Difusio","Centre Cívic La Cadena",788,"A partir de 2018 inclou espectacles i xerrades, i no les activitats relacionades amb les exposicions, que sí que s'havien comptat fins 2017.","",3,"Sants-Montjuïc",13,"la Marina de Port","Municipal","Centres cívics","Centres cívics","Multidisciplinaris i altres",41.364156288000004,2.139067245
2019,"Total Activitats Difusió","Centre Cívic Can Castelló",35,"A partir de 2018 inclou espectacles i xerrades, i no les activitats relacionades amb les exposicions, que sí que s'havien comptat fins 2017.","",5,"Sarrià-Sant Gervasi",26,"Sant Gervasi - Galvany","Municipal","Centres cívics","Centres cívics","Multidisciplinaris i altres",41.399005576,2.14016297
2019,"Total Assistents Activitats Difusio","Centre Cívic La Sagrera",4731,"A partir de 2018 inclou espectacles i xerrades, i no les activitats relacionades amb les exposicions, que sí que s'havien comptat fins 2017.","",9,"Sant Andreu",61,"la Sagrera","Municipal","Centres cívics","Centres cívics","Multidisciplinaris i altres",41.423942321,2.189139414
2019,"Total Activitats Difusió","Centre Cívic Can Basté",51,"A partir de 2018 inclou espectacles i xerrades, i no les activitats relacionades amb les exposicions, que sí que s'havien comptat fins 2017.","",8,"Nou Barris",46,"el Turó de la Peira","Municipal","Centres cívics","Centres cívics","Multidisciplinaris i altres",41.430458546,2.173212158
2019,"Total Activitats Difusió","Centre Cívic Cotxeres de Sants",702,"Inclou les dades del Casinet d'Hostafrancs. / A partir de 2018 inclou espectacles i xerrades, i no les activitats relacionades amb les exposicions, que sí que s'havien comptat fins 2017.","",3,"Sants-Montjuïc",18,"Sants","Municipal","Centres cívics","Centres cívics","Multidisciplinaris i altres",41.375264199,2.136876024
2019,"Total Activitats Difusió","Centre Cívic Sant Andreu",105,"A partir de 2018 inclou espectacles i xerrades, i no les activitats relacionades amb les exposicions, que sí que s'havien comptat fins 2017.","",9,"Sant Andreu",60,"Sant Andreu","Municipal","Centres cívics","Centres cívics","Multidisciplinaris i altres",41.430852888000004,2.189400581
2019,"Total Activitats Difusió","Centre Cívic Sarrià",81,"A partir de 2018 inclou espectacles i xerrades, i no les activitats relacionades amb les exposicions, que sí que s'havien comptat fins 2017.","",5,"Sarrià-Sant Gervasi",23,"Sarrià","Municipal","Centres cívics","Centres cívics","Multidisciplinaris i altres",41.393871979000004,2.121163587
2019,"Total Assistents Activitats Difusio","Centre Cívic Cotxeres Borrell",7419,"A partir de 2018 inclou espectacles i xerrades, i no les activitats relacionades amb les exposicions, que sí que s'havien comptat fins 2017.","",2,"Eixample",10,"Sant Antoni","Municipal","Centres cívics","Centres cívics","Multidisciplinaris i altres",41.375908694,2.163176076
2019,"Total Activitats Difusió","Centre Cívic Sant Martí",130,"A partir de 2018 inclou espectacles i xerrades, i no les activitats relacionades amb les exposicions, que sí que s'havien comptat fins 2017.","",10,"Sant Martí",72,"Sant Martí de Provençals","Municipal","Centres cívics","Centres cívics","Multidisciplinaris i altres",41.416622171,2.1985638130000003
